$GPRMC,184533.00,A,4531.07315,N,07341.32979,W,0.826,,131217,,,A*65
$GPVTG,,T,,M,0.826,N,1.529,K,A*20
$GPGGA,184533.00,4531.07315,N,07341.32979,W,1,06,2.63,21.1,M,-32.7,M,,*5A
$GPGSA,A,3,32,18,10,14,24,15,,,,,,,3.08,2.63,1.60*07
$GPGSV,3,1,12,08,00,296,,10,73,302,26,11,01,332,,12,18,116,20*70
$GPGSV,3,2,12,14,23,261,33,15,18,079,22,18,71,143,21,20,09,132,14*7D
$GPGSV,3,3,12,21,17,190,19,24,53,064,25,25,06,151,,32,41,270,36*7A
$GPGLL,4531.07315,N,07341.32979,W,184533.00,A,A*77
$GPRMC,184534.00,A,4531.07328,N,07341.32976,W,0.850,,131217,,,A*62
$GPVTG,,T,,M,0.850,N,1.575,K,A*28
$GPGGA,184534.00,4531.07328,N,07341.32976,W,1,06,2.63,20.9,M,-32.7,M,,*55
$GPGSA,A,3,32,18,10,14,24,15,,,,,,,3.08,2.63,1.61*06
$GPGSV,3,1,12,08,00,296,,10,73,302,27,11,01,332,,12,18,116,20*71
$GPGSV,3,2,12,14,23,261,34,15,18,079,22,18,71,143,22,20,09,132,14*79
$GPGSV,3,3,12,21,17,190,20,24,53,064,25,25,06,150,,32,41,270,36*71
$GPGLL,4531.07328,N,07341.32976,W,184534.00,A,A*71
$GPRMC,184535.00,A,4531.07329,N,07341.32972,W,0.733,,131217,,,A*6C
$GPVTG,,T,,M,0.733,N,1.358,K,A*2B
$GPGGA,184535.00,4531.07329,N,07341.32972,W,1,06,2.63,20.9,M,-32.7,M,,*51
$GPGSA,A,3,32,18,10,14,24,15,,,,,,,3.08,2.63,1.61*06
$GPGSV,3,1,12,08,00,296,,10,73,302,27,11,01,332,,12,18,116,21*70
$GPGSV,3,2,12,14,23,261,33,15,18,079,23,18,71,143,22,20,09,132,13*78
$GPGSV,3,3,12,21,17,190,20,24,53,064,25,25,06,150,,32,41,270,36*71
$GPGLL,4531.07329,N,07341.32972,W,184535.00,A,A*75
$GPRMC,184536.00,A,4531.07332,N,07341.32976,W,0.696,,131217,,,A*6F
$GPVTG,,T,,M,0.696,N,1.290,K,A*20
$GPGGA,184536.00,4531.07332,N,07341.32976,W,1,06,2.63,20.9,M,-32.7,M,,*5C
$GPGSA,A,3,32,18,10,14,24,15,,,,,,,3.08,2.63,1.61*06
$GPGSV,3,1,12,08,00,296,,10,73,302,27,11,01,332,,12,18,116,22*73
$GPGSV,3,2,12,14,23,261,33,15,18,079,23,18,71,143,22,20,09,132,13*78
$GPGSV,3,3,12,21,17,190,20,24,53,064,25,25,06,150,,32,41,270,36*71
$GPGLL,4531.07332,N,07341.32976,W,184536.00,A,A*78
$GPRMC,184537.00,A,4531.07324,N,07341.32974,W,0.665,,131217,,,A*67
$GPVTG,,T,,M,0.665,N,1.231,K,A*27
$GPGGA,184537.00,4531.07324,N,07341.32974,W,1,06,2.63,21.0,M,-32.7,M,,*50
$GPGSA,A,3,32,18,10,14,24,15,,,,,,,3.08,2.63,1.61*06
$GPGSV,3,1,12,08,00,296,,10,73,302,27,11,01,332,,12,18,116,21*70
$GPGSV,3,2,12,14,23,261,33,15,18,079,23,18,71,143,22,20,09,132,14*7F
$GPGSV,3,3,12,21,17,190,20,24,53,064,25,25,06,150,,32,41,270,37*70
$GPGLL,4531.07324,N,07341.32974,W,184537.00,A,A*7C
$GPRMC,184538.00,A,4531.07355,N,07341.32981,W,0.910,,131217,,,A*69
$GPVTG,,T,,M,0.910,N,1.685,K,A*21
$GPGGA,184538.00,4531.07355,N,07341.32981,W,1,06,2.63,20.9,M,-32.7,M,,*5B
$GPGSA,A,3,32,18,10,14,24,15,,,,,,,3.08,2.63,1.61*06
$GPGSV,3,1,12,08,00,296,,10,73,302,27,11,01,332,,12,18,116,21*70
$GPGSV,3,2,12,14,23,261,33,15,18,079,23,18,71,143,23,20,09,132,15*7F
$GPGSV,3,3,12,21,17,190,20,24,53,064,25,25,06,150,,32,41,270,36*71
$GPGLL,4531.07355,N,07341.32981,W,184538.00,A,A*7F
$GPRMC,184539.00,A,4531.07329,N,07341.32966,W,0.580,,131217,,,A*6F
$GPVTG,,T,,M,0.580,N,1.074,K,A*2C
$GPGGA,184539.00,4531.07329,N,07341.32966,W,1,06,2.63,20.8,M,-32.7,M,,*59
$GPGSA,A,3,32,18,10,14,24,15,,,,,,,3.08,2.63,1.61*06
$GPGSV,3,1,12,08,00,296,,10,73,302,27,11,01,332,,12,18,116,22*73
$GPGSV,3,2,12,14,23,261,33,15,18,079,23,18,71,143,22,20,09,132,14*7F
$GPGSV,3,3,12,21,17,190,20,24,53,064,26,25,06,150,,32,41,270,37*73
$GPGLL,4531.07329,N,07341.32966,W,184539.00,A,A*7C
$GPRMC,184540.00,A,4531.07365,N,07341.32975,W,0.751,,131217,,,A*65
$GPVTG,,T,,M,0.751,N,1.391,K,A*2A
$GPGGA,184540.00,4531.07365,N,07341.32975,W,1,06,2.63,20.6,M,-32.7,M,,*53
$GPGSA,A,3,32,18,10,14,24,15,,,,,,,3.08,2.63,1.61*06
$GPGSV,3,1,12,08,00,296,,10,73,302,26,11,01,332,,12,18,116,20*70
$GPGSV,3,2,12,14,23,261,33,15,18,079,23,18,71,143,22,20,09,132,12*79
$GPGSV,3,3,12,21,17,190,19,24,53,064,25,25,06,150,,32,41,270,36*7B
$GPGLL,4531.07365,N,07341.32975,W,184540.00,A,A*78
$GPRMC,184541.00,A,4531.07344,N,07341.32959,W,0.582,,131217,,,A*65
$GPVTG,,T,,M,0.582,N,1.079,K,A*23
$GPGGA,184541.00,4531.07344,N,07341.32959,W,1,06,2.63,20.6,M,-32.7,M,,*5F
$GPGSA,A,3,32,18,10,14,24,15,,,,,,,3.08,2.63,1.61*06
$GPGSV,3,1,12,08,00,296,,10,73,302,26,11,01,332,,12,18,116,20*70
$GPGSV,3,2,12,14,23,261,33,15,18,079,23,18,71,143,22,20,09,132,12*79
$GPGSV,3,3,12,21,17,190,20,24,53,064,26,25,06,150,,32,41,271,36*73
$GPGLL,4531.07344,N,07341.32959,W,184541.00,A,A*74
$GPRMC,184542.00,A,4531.07377,N,07341.32964,W,0.894,,131217,,,A*62
$GPVTG,,T,,M,0.894,N,1.655,K,A*21
$GPGGA,184542.00,4531.07377,N,07341.32964,W,1,06,2.63,20.5,M,-32.7,M,,*51
$GPGSA,A,3,32,18,10,14,24,15,,,,,,,3.08,2.63,1.61*06
$GPGSV,3,1,12,08,00,296,,10,73,302,27,11,01,332,,12,18,116,20*71
$GPGSV,3,2,12,14,23,261,33,15,18,079,24,18,71,143,22,20,09,132,12*7E
$GPGSV,3,3,12,21,17,190,21,24,53,064,26,25,06,150,,32,41,271,36*72
$GPGLL,4531.07377,N,07341.32964,W,184542.00,A,A*79
$GPRMC,184543.00,A,4531.07396,N,07341.32969,W,0.972,,131217,,,A*68
$GPVTG,,T,,M,0.972,N,1.799,K,A*29
$GPGGA,184543.00,4531.07396,N,07341.32969,W,1,06,2.63,20.4,M,-32.7,M,,*53
$GPGSA,A,3,32,18,10,14,24,15,,,,,,,3.08,2.63,1.61*06
$GPGSV,3,1,12,08,00,296,,10,73,302,27,11,01,332,,12,18,116,20*71
$GPGSV,3,2,12,14,23,261,34,15,18,079,24,18,71,143,22,20,09,132,13*78
$GPGSV,3,3,12,21,17,190,21,24,53,064,26,25,06,150,,32,41,271,37*73
$GPGLL,4531.07396,N,07341.32969,W,184543.00,A,A*7A
$GPRMC,184544.00,A,4531.07374,N,07341.32949,W,0.638,,131217,,,A*60
$GPVTG,,T,,M,0.638,N,1.181,K,A*27
$GPGGA,184544.00,4531.07374,N,07341.32949,W,1,06,2.63,20.2,M,-32.7,M,,*5C
$GPGSA,A,3,32,18,10,14,24,15,,,,,,,3.08,2.63,1.61*06
$GPGSV,3,1,12,08,00,296,,10,73,302,27,11,01,332,,12,18,116,20*71
$GPGSV,3,2,12,14,23,261,33,15,18,079,24,18,71,143,23,20,09,132,15*78
$GPGSV,3,3,12,21,17,190,21,24,53,064,25,25,06,150,,32,41,271,36*71
$GPGLL,4531.07374,N,07341.32949,W,184544.00,A,A*73
$GPRMC,184545.00,A,4531.07399,N,07341.32955,W,0.653,,131217,,,A*62
$GPVTG,,T,,M,0.653,N,1.209,K,A*29
$GPGGA,184545.00,4531.07399,N,07341.32955,W,1,06,2.63,20.1,M,-32.7,M,,*50
$GPGSA,A,3,32,18,10,14,24,15,,,,,,,3.08,2.63,1.61*06
$GPGSV,3,1,12,08,00,296,,10,73,302,27,11,01,332,,12,18,116,20*71
$GPGSV,3,2,12,14,23,261,33,15,18,079,24,18,71,143,23,20,09,132,16*7B
$GPGSV,3,3,12,21,17,190,21,24,53,064,25,25,06,150,,32,41,271,36*71
$GPGLL,4531.07399,N,07341.32955,W,184545.00,A,A*7C
$GPRMC,184546.00,A,4531.07381,N,07341.32946,W,0.515,,131217,,,A*6B
$GPVTG,,T,,M,0.515,N,0.954,K,A*2A
$GPGGA,184546.00,4531.07381,N,07341.32946,W,1,06,2.63,20.2,M,-32.7,M,,*5B
$GPGSA,A,3,32,18,10,14,24,15,,,,,,,3.08,2.63,1.61*06
$GPGSV,3,1,12,08,00,296,,10,73,302,27,11,01,332,,12,18,116,20*71
$GPGSV,3,2,12,14,23,261,33,15,18,079,23,18,71,143,24,20,09,132,16*7B
$GPGSV,3,3,12,21,17,190,20,24,53,064,26,25,06,150,,32,41,271,36*73
$GPGLL,4531.07381,N,07341.32946,W,184546.00,A,A*74
$GPRMC,184547.00,A,4531.07353,N,07341.32938,W,0.370,,131217,,,A*69
$GPVTG,,T,,M,0.370,N,0.686,K,A*2F
$GPGGA,184547.00,4531.07353,N,07341.32938,W,1,06,2.63,20.4,M,-32.7,M,,*5A
$GPGSA,A,3,32,18,10,14,24,15,,,,,,,3.08,2.63,1.61*06
$GPGSV,3,1,12,08,00,296,,10,73,302,27,11,01,332,,12,18,116,20*71
$GPGSV,3,2,12,14,23,261,33,15,18,079,23,18,71,143,23,20,09,132,15*7F
$GPGSV,3,3,12,21,17,190,21,24,53,064,26,25,06,150,,32,41,271,37*73
$GPGLL,4531.07353,N,07341.32938,W,184547.00,A,A*73
$GPRMC,184548.00,A,4531.07352,N,07341.32939,W,0.258,,131217,,,A*6D
$GPVTG,,T,,M,0.258,N,0.478,K,A*27
$GPGGA,184548.00,4531.07352,N,07341.32939,W,1,06,2.62,20.4,M,-32.7,M,,*54
$GPGSA,A,3,32,18,10,14,24,15,,,,,,,3.08,2.62,1.61*07
$GPGSV,3,1,12,08,00,296,,10,73,302,27,11,01,332,,12,18,116,20*71
$GPGSV,3,2,12,14,23,261,33,15,18,079,23,18,71,143,23,20,09,132,16*7C
$GPGSV,3,3,12,21,17,190,20,24,53,064,26,25,06,150,,32,41,271,36*73
$GPGLL,4531.07352,N,07341.32939,W,184548.00,A,A*7C
$GPRMC,184549.00,A,4531.07386,N,07341.32950,W,0.387,,131217,,,A*69
$GPVTG,,T,,M,0.387,N,0.717,K,A*2E
$GPGGA,184549.00,4531.07386,N,07341.32950,W,1,06,2.62,20.2,M,-32.7,M,,*55
$GPGSA,A,3,32,18,10,14,24,15,,,,,,,3.08,2.62,1.61*07
$GPGSV,3,1,12,08,00,296,,10,73,302,27,11,01,332,,12,18,116,20*71
$GPGSV,3,2,12,14,23,261,33,15,18,079,24,18,71,143,23,20,09,132,16*7B
$GPGSV,3,3,12,21,17,190,21,24,53,064,26,25,06,150,,32,41,271,37*73
$GPGLL,4531.07386,N,07341.32950,W,184549.00,A,A*7B
$GPRMC,184550.00,A,4531.07407,N,07341.32953,W,0.424,,131217,,,A*62
$GPVTG,,T,,M,0.424,N,0.785,K,A*2B
$GPGGA,184550.00,4531.07407,N,07341.32953,W,1,06,2.62,20.2,M,-32.7,M,,*50
$GPGSA,A,3,32,18,10,14,24,15,,,,,,,3.08,2.62,1.61*07
$GPGSV,3,1,12,08,00,296,,10,73,302,27,11,01,332,,12,18,116,20*71
$GPGSV,3,2,12,14,23,261,33,15,18,079,23,18,71,143,23,20,09,132,16*7C
$GPGSV,3,3,12,21,17,190,21,24,53,064,26,25,06,150,,32,41,271,37*73
$GPGLL,4531.07407,N,07341.32953,W,184550.00,A,A*7E
$GPRMC,184551.00,A,4531.07391,N,07341.32944,W,0.278,,131217,,,A*62
$GPVTG,,T,,M,0.278,N,0.515,K,A*2F
$GPGGA,184551.00,4531.07391,N,07341.32944,W,1,06,2.62,20.3,M,-32.7,M,,*5E
$GPGSA,A,3,32,18,10,14,24,15,,,,,,,3.08,2.62,1.61*07
$GPGSV,3,1,12,08,00,296,,10,73,302,27,11,01,332,,12,18,116,21*70
$GPGSV,3,2,12,14,23,261,33,15,18,079,23,18,71,143,23,20,09,132,17*7D
$GPGSV,3,3,12,21,17,190,20,24,53,064,26,25,06,150,,32,41,271,37*72
$GPGLL,4531.07391,N,07341.32944,W,184551.00,A,A*71
$GPRMC,184552.00,A,4531.07391,N,07341.32939,W,0.353,,131217,,,A*63
$GPVTG,,T,,M,0.353,N,0.655,K,A*20
$GPGGA,184552.00,4531.07391,N,07341.32939,W,1,06,2.62,20.3,M,-32.7,M,,*57
$GPGSA,A,3,32,18,10,14,24,15,,,,,,,3.07,2.62,1.61*08
$GPGSV,3,1,12,08,00,296,,10,73,302,27,11,01,332,,12,18,116,21*70
$GPGSV,3,2,12,14,23,261,33,15,18,079,24,18,71,143,23,20,09,132,17*7A
$GPGSV,3,3,12,21,17,190,20,24,53,064,27,25,06,150,,32,41,271,37*73
$GPGLL,4531.07391,N,07341.32939,W,184552.00,A,A*78
$GPRMC,184553.00,A,4531.07392,N,07341.32934,W,0.292,,131217,,,A*60
$GPVTG,,T,,M,0.292,N,0.540,K,A*2B
$GPGGA,184553.00,4531.07392,N,07341.32934,W,1,06,2.62,20.1,M,-32.7,M,,*5A
$GPGSA,A,3,32,18,10,14,24,15,,,,,,,3.07,2.62,1.61*08
$GPGSV,3,1,12,08,00,296,,10,73,302,27,11,01,332,,12,18,116,21*70
$GPGSV,3,2,12,14,23,261,33,15,18,079,24,18,71,143,23,20,09,132,18*75
$GPGSV,3,3,12,21,17,190,20,24,53,064,27,25,06,150,,32,41,271,37*73
$GPGLL,4531.07392,N,07341.32934,W,184553.00,A,A*77
$GPRMC,184554.00,A,4531.07377,N,07341.32944,W,0.129,,131217,,,A*68
$GPVTG,,T,,M,0.129,N,0.239,K,A*21
$GPGGA,184554.00,4531.07377,N,07341.32944,W,1,06,2.62,20.3,M,-32.7,M,,*53
$GPGSA,A,3,32,18,10,14,24,15,,,,,,,3.07,2.62,1.61*08
$GPGSV,3,1,12,08,00,296,,10,73,302,27,11,01,332,,12,18,116,22*73
$GPGSV,3,2,12,14,23,261,33,15,18,079,23,18,71,143,23,20,09,132,18*72
$GPGSV,3,3,12,21,17,190,20,24,53,064,27,25,06,150,,32,41,271,37*73
$GPGLL,4531.07377,N,07341.32944,W,184554.00,A,A*7C
$GPRMC,184555.00,A,4531.07360,N,07341.32938,W,0.073,,131217,,,A*6A
$GPVTG,,T,,M,0.073,N,0.134,K,A*21
$GPGGA,184555.00,4531.07360,N,07341.32938,W,1,06,2.62,20.3,M,-32.7,M,,*5F
$GPGSA,A,3,32,18,10,14,24,15,,,,,,,3.07,2.62,1.61*08
$GPGSV,3,1,12,08,00,296,,10,73,302,26,11,01,332,,12,18,116,22*72
$GPGSV,3,2,12,14,23,261,33,15,18,079,23,18,71,143,22,20,09,132,17*7C
$GPGSV,3,3,12,21,17,190,20,24,53,064,27,25,06,150,,32,41,271,37*73
$GPGLL,4531.07360,N,07341.32938,W,184555.00,A,A*70
$GPRMC,184556.00,A,4531.07395,N,07341.32946,W,0.326,,131217,,,A*69
$GPVTG,,T,,M,0.326,N,0.604,K,A*26
$GPGGA,184556.00,4531.07395,N,07341.32946,W,1,06,2.62,20.2,M,-32.7,M,,*5E
$GPGSA,A,3,32,18,10,14,24,15,,,,,,,3.07,2.62,1.61*08
$GPGSV,3,1,12,08,00,296,,10,73,302,26,11,01,332,,12,18,116,22*72
$GPGSV,3,2,12,14,23,261,33,15,18,079,23,18,71,143,22,20,09,132,18*73
$GPGSV,3,3,12,21,17,190,20,24,53,064,28,25,06,150,,32,41,271,37*7C
$GPGLL,4531.07395,N,07341.32946,W,184556.00,A,A*70
$GPRMC,184557.00,A,4531.07385,N,07341.32942,W,0.208,,131217,,,A*60
$GPVTG,,T,,M,0.208,N,0.385,K,A*27
$GPGGA,184557.00,4531.07385,N,07341.32942,W,1,06,2.62,20.1,M,-32.7,M,,*59
$GPGSA,A,3,32,18,10,14,24,15,,,,,,,3.07,2.62,1.61*08
$GPGSV,3,1,12,08,00,296,,10,73,302,26,11,01,332,,12,18,116,22*72
$GPGSV,3,2,12,14,23,261,33,15,18,079,23,18,71,143,22,20,09,132,17*7C
$GPGSV,3,3,12,21,17,190,20,24,53,064,28,25,06,150,,32,41,271,37*7C
$GPGLL,4531.07385,N,07341.32942,W,184557.00,A,A*74
$GPRMC,184558.00,A,4531.07377,N,07341.32938,W,0.112,,131217,,,A*67
$GPVTG,,T,,M,0.112,N,0.207,K,A*24
$GPGGA,184558.00,4531.07377,N,07341.32938,W,1,06,2.62,20.2,M,-32.7,M,,*55
$GPGSA,A,3,32,18,10,14,24,15,,,,,,,3.07,2.62,1.61*08
$GPGSV,3,1,12,08,00,296,,10,73,302,26,11,01,332,,12,18,116,22*72
$GPGSV,3,2,12,14,23,261,33,15,18,079,23,18,71,143,23,20,09,132,17*7D
$GPGSV,3,3,12,21,17,190,21,24,53,064,28,25,06,150,,32,41,271,37*7D
$GPGLL,4531.07377,N,07341.32938,W,184558.00,A,A*7B
$GPRMC,184559.00,A,4531.07348,N,07341.32923,W,0.180,,131217,,,A*6B
$GPVTG,,T,,M,0.180,N,0.334,K,A*2E
$GPGGA,184559.00,4531.07348,N,07341.32923,W,1,06,2.62,20.1,M,-32.7,M,,*51
$GPGSA,A,3,32,18,10,14,24,15,,,,,,,3.07,2.62,1.61*08
$GPGSV,3,1,12,08,00,296,,10,73,302,26,11,01,332,,12,18,116,22*72
$GPGSV,3,2,12,14,23,261,33,15,18,079,23,18,71,143,23,20,09,132,17*7D
$GPGSV,3,3,12,21,17,190,21,24,53,064,28,25,06,150,,32,41,271,37*7D
$GPGLL,4531.07348,N,07341.32923,W,184559.00,A,A*7C
$GPRMC,184600.00,A,4531.07332,N,07341.32918,W,0.129,,131217,,,A*62
$GPVTG,,T,,M,0.129,N,0.238,K,A*20
$GPGGA,184600.00,4531.07332,N,07341.32918,W,1,06,2.62,20.2,M,-32.7,M,,*58
$GPGSA,A,3,32,18,10,14,24,15,,,,,,,3.07,2.62,1.61*08
$GPGSV,3,1,12,08,00,295,,10,73,302,26,11,01,332,,12,18,116,22*71
$GPGSV,3,2,12,14,23,261,33,15,18,079,23,18,71,143,23,20,09,132,16*7C
$GPGSV,3,3,12,21,17,190,20,24,53,064,28,25,06,150,,32,41,271,37*7C
$GPGLL,4531.07332,N,07341.32918,W,184600.00,A,A*76
$GPRMC,184601.00,A,4531.07308,N,07341.32909,W,0.131,,131217,,,A*63
$GPVTG,,T,,M,0.131,N,0.242,K,A*24
$GPGGA,184601.00,4531.07308,N,07341.32909,W,1,06,2.62,20.3,M,-32.7,M,,*51
$GPGSA,A,3,32,18,10,14,24,15,,,,,,,3.07,2.62,1.61*08
$GPGSV,3,1,12,08,00,295,,10,73,302,26,11,01,332,,12,18,116,22*71
$GPGSV,3,2,12,14,23,261,33,15,18,079,23,18,71,143,23,20,09,132,17*7D
$GPGSV,3,3,12,21,17,190,21,24,53,064,28,25,06,150,,32,41,271,37*7D
$GPGLL,4531.07308,N,07341.32909,W,184601.00,A,A*7E
$GPRMC,184602.00,A,4531.07317,N,07341.32914,W,0.125,,131217,,,A*67
$GPVTG,,T,,M,0.125,N,0.231,K,A*25
$GPGGA,184602.00,4531.07317,N,07341.32914,W,1,06,2.62,20.3,M,-32.7,M,,*50
$GPGSA,A,3,32,18,10,14,24,15,,,,,,,3.07,2.62,1.61*08
$GPGSV,3,1,12,08,00,295,,10,74,302,26,11,01,332,,12,18,116,22*76
$GPGSV,3,2,12,14,23,261,33,15,18,079,22,18,71,143,23,20,09,132,17*7C
$GPGSV,3,3,12,21,17,190,22,24,53,064,27,25,06,150,,32,41,271,37*71
$GPGLL,4531.07317,N,07341.32914,W,184602.00,A,A*7F
$GPRMC,184603.00,A,4531.07301,N,07341.32910,W,0.194,,131217,,,A*6F
$GPVTG,,T,,M,0.194,N,0.359,K,A*20
$GPGGA,184603.00,4531.07301,N,07341.32910,W,1,06,2.62,20.4,M,-32.7,M,,*55
$GPGSA,A,3,32,18,10,14,24,15,,,,,,,3.07,2.62,1.61*08
$GPGSV,3,1,12,08,00,295,,10,74,302,25,11,01,332,,12,18,116,23*74
$GPGSV,3,2,12,14,23,261,32,15,18,079,23,18,71,143,23,20,09,132,16*7D
$GPGSV,3,3,12,21,17,190,21,24,53,064,28,25,06,150,,32,41,271,37*7D
$GPGLL,4531.07301,N,07341.32910,W,184603.00,A,A*7D
$GPRMC,184604.00,A,4531.07296,N,07341.32901,W,0.148,,131217,,,A*66
$GPVTG,,T,,M,0.148,N,0.275,K,A*2E
$GPGGA,184604.00,4531.07296,N,07341.32901,W,1,06,2.62,20.3,M,-32.7,M,,*5A
$GPGSA,A,3,32,18,10,14,24,15,,,,,,,3.07,2.62,1.61*08
$GPGSV,3,1,12,08,00,295,,10,74,302,26,11,01,332,,12,18,116,22*76
$GPGSV,3,2,12,14,23,261,32,15,18,079,22,18,71,143,22,20,09,132,16*7D
$GPGSV,3,3,12,21,17,190,21,24,53,064,28,25,06,150,,32,41,271,37*7D
$GPGLL,4531.07296,N,07341.32901,W,184604.00,A,A*75
$GPRMC,184605.00,A,4531.07288,N,07341.32892,W,0.119,,131217,,,A*67
$GPVTG,,T,,M,0.119,N,0.220,K,A*2A
$GPGGA,184605.00,4531.07288,N,07341.32892,W,1,06,2.61,20.2,M,-32.7,M,,*5D
$GPGSA,A,3,32,18,10,14,24,15,,,,,,,3.07,2.61,1.61*0B
$GPGSV,3,1,12,08,00,295,,10,74,302,26,11,01,332,,12,18,116,22*76
$GPGSV,3,2,12,14,23,261,32,15,18,079,22,18,71,143,22,20,09,132,16*7D
$GPGSV,3,3,12,21,17,190,21,24,53,064,28,25,06,150,,32,41,271,36*7C
$GPGLL,4531.07288,N,07341.32892,W,184605.00,A,A*70
$GPRMC,184606.00,A,4531.07260,N,07341.32884,W,0.235,,131217,,,A*68
$GPVTG,,T,,M,0.235,N,0.436,K,A*26
$GPGGA,184606.00,4531.07260,N,07341.32884,W,1,06,2.61,20.3,M,-32.7,M,,*5E
$GPGSA,A,3,32,18,10,14,24,15,,,,,,,3.07,2.61,1.61*0B
$GPGSV,3,1,12,08,00,295,,10,74,302,25,11,01,332,,12,18,116,23*74
$GPGSV,3,2,12,14,23,262,32,15,18,079,22,18,71,143,22,20,09,132,16*7E
$GPGSV,3,3,12,21,17,190,21,24,53,064,28,25,06,150,,32,41,271,36*7C
$GPGLL,4531.07260,N,07341.32884,W,184606.00,A,A*72
$GPRMC,184607.00,A,4531.07286,N,07341.32895,W,0.113,,131217,,,A*66
$GPVTG,,T,,M,0.113,N,0.210,K,A*23
$GPGGA,184607.00,4531.07286,N,07341.32895,W,1,06,2.61,20.2,M,-32.7,M,,*56
$GPGSA,A,3,32,18,10,14,24,15,,,,,,,3.07,2.61,1.61*0B
$GPGSV,3,1,12,08,00,295,,10,74,302,26,11,01,332,,12,18,116,22*76
$GPGSV,3,2,12,14,23,262,32,15,17,079,22,18,71,143,22,20,09,132,16*71
$GPGSV,3,3,12,21,17,190,21,24,53,064,28,25,06,150,,32,41,271,36*7C
$GPGLL,4531.07286,N,07341.32895,W,184607.00,A,A*7B
$GPRMC,184608.00,A,4531.07244,N,07341.32889,W,0.306,,131217,,,A*6C
$GPVTG,,T,,M,0.306,N,0.567,K,A*22
$GPGGA,184608.00,4531.07244,N,07341.32889,W,1,06,2.61,20.4,M,-32.7,M,,*5C
$GPGSA,A,3,32,18,10,14,24,15,,,,,,,3.07,2.61,1.61*0B
$GPGSV,3,1,12,08,00,295,,10,74,302,26,11,01,332,,12,18,116,23*77
$GPGSV,3,2,12,14,23,262,33,15,17,079,22,18,71,143,23,20,09,132,17*70
$GPGSV,3,3,12,21,17,190,21,24,53,064,28,25,06,150,,32,41,271,36*7C
$GPGLL,4531.07244,N,07341.32889,W,184608.00,A,A*77
$GPRMC,184609.00,A,4531.07234,N,07341.32882,W,0.191,,131217,,,A*6D
$GPVTG,,T,,M,0.191,N,0.353,K,A*2F
$GPGGA,184609.00,4531.07234,N,07341.32882,W,1,06,2.61,20.4,M,-32.7,M,,*51
$GPGSA,A,3,32,18,10,14,24,15,,,,,,,3.07,2.61,1.61*0B
$GPGSV,3,1,12,08,00,295,,10,74,302,26,11,01,332,,12,18,116,24*70
$GPGSV,3,2,12,14,23,262,32,15,17,079,22,18,71,143,23,20,09,132,17*71
$GPGSV,3,3,12,21,17,190,21,24,53,064,28,25,06,150,,32,41,271,36*7C
$GPGLL,4531.07234,N,07341.32882,W,184609.00,A,A*7A
$GPRMC,184610.00,A,4531.07208,N,07341.32879,W,0.106,,131217,,,A*60
$GPVTG,,T,,M,0.106,N,0.196,K,A*2A
$GPGGA,184610.00,4531.07208,N,07341.32879,W,1,06,2.61,20.6,M,-32.7,M,,*50
$GPGSA,A,3,32,18,10,14,24,15,,,,,,,3.07,2.61,1.61*0B
$GPGSV,3,1,12,08,00,295,,10,74,302,26,11,01,332,,12,18,116,24*70
$GPGSV,3,2,12,14,23,262,33,15,17,079,22,18,71,143,23,20,09,132,17*70
$GPGSV,3,3,12,21,17,190,20,24,53,064,28,25,06,150,,32,41,271,36*7D
$GPGLL,4531.07208,N,07341.32879,W,184610.00,A,A*79
$GPRMC,184611.00,A,4531.07185,N,07341.32876,W,0.189,,131217,,,A*6F
$GPVTG,,T,,M,0.189,N,0.350,K,A*25
$GPGGA,184611.00,4531.07185,N,07341.32876,W,1,06,2.61,20.8,M,-32.7,M,,*56
$GPGSA,A,3,32,18,10,14,24,15,,,,,,,3.07,2.61,1.61*0B
$GPGSV,3,1,12,08,00,295,,10,74,302,25,11,01,332,,12,18,116,23*74
$GPGSV,3,2,12,14,23,262,32,15,17,079,22,18,71,143,23,20,09,132,18*7E
$GPGSV,3,3,12,21,17,190,20,24,53,064,28,25,06,150,,32,41,271,36*7D
$GPGLL,4531.07185,N,07341.32876,W,184611.00,A,A*71
$GPRMC,184612.00,A,4531.07207,N,07341.32883,W,0.179,,131217,,,A*60
$GPVTG,,T,,M,0.179,N,0.331,K,A*2D
$GPGGA,184612.00,4531.07207,N,07341.32883,W,1,06,2.61,20.8,M,-32.7,M,,*56
$GPGSA,A,3,32,18,10,14,24,15,,,,,,,3.06,2.61,1.61*0A
$GPGSV,3,1,12,08,00,295,,10,74,302,25,11,01,332,,12,18,116,24*73
$GPGSV,3,2,12,14,23,262,33,15,17,079,21,18,71,143,23,20,09,132,17*73
$GPGSV,3,3,12,21,17,190,20,24,53,064,28,25,06,150,,32,41,271,36*7D
$GPGLL,4531.07207,N,07341.32883,W,184612.00,A,A*71
$GPRMC,184613.00,A,4531.07202,N,07341.32883,W,0.101,,131217,,,A*6B
$GPVTG,,T,,M,0.101,N,0.188,K,A*22
$GPGGA,184613.00,4531.07202,N,07341.32883,W,1,06,2.61,21.0,M,-32.7,M,,*5B
$GPGSA,A,3,32,18,10,14,24,15,,,,,,,3.06,2.61,1.61*0A
$GPGSV,3,1,12,08,00,295,,10,74,302,25,11,01,332,,12,18,116,24*73
$GPGSV,3,2,12,14,23,262,32,15,17,079,20,18,71,143,23,20,09,132,18*7C
$GPGSV,3,3,12,21,16,190,20,24,53,064,28,25,06,150,,32,41,271,36*7C
$GPGLL,4531.07202,N,07341.32883,W,184613.00,A,A*75
$GPRMC,184614.00,A,4531.07186,N,07341.32883,W,0.103,,131217,,,A*61
$GPVTG,,T,,M,0.103,N,0.191,K,A*28
$GPGGA,184614.00,4531.07186,N,07341.32883,W,1,06,2.61,21.2,M,-32.7,M,,*51
$GPGSA,A,3,32,18,10,14,24,15,,,,,,,3.06,2.61,1.61*0A
$GPGSV,3,1,12,08,00,295,,10,74,302,25,11,01,332,,12,18,116,23*74
$GPGSV,3,2,12,14,23,262,32,15,17,079,20,18,71,143,22,20,09,132,16*73
$GPGSV,3,3,12,21,16,190,20,24,53,064,28,25,06,150,,32,41,271,36*7C
$GPGLL,4531.07186,N,07341.32883,W,184614.00,A,A*7D
$GPRMC,184615.00,A,4531.07197,N,07341.32886,W,0.101,,131217,,,A*67
$GPVTG,,T,,M,0.101,N,0.188,K,A*22
$GPGGA,184615.00,4531.07197,N,07341.32886,W,1,06,2.61,21.2,M,-32.7,M,,*55
$GPGSA,A,3,32,18,10,14,24,15,,,,,,,3.06,2.61,1.61*0A
$GPGSV,3,1,12,08,00,295,,10,74,302,25,11,01,332,,12,18,116,23*74
$GPGSV,3,2,12,14,23,262,32,15,17,079,21,18,71,143,22,20,09,132,16*72
$GPGSV,3,3,12,21,16,190,20,24,53,064,28,25,06,150,,32,41,271,36*7C
$GPGLL,4531.07197,N,07341.32886,W,184615.00,A,A*79
$GPRMC,184616.00,A,4531.07212,N,07341.32888,W,0.137,,131217,,,A*61
$GPVTG,,T,,M,0.137,N,0.254,K,A*25
$GPGGA,184616.00,4531.07212,N,07341.32888,W,1,06,2.61,21.2,M,-32.7,M,,*56
$GPGSA,A,3,32,18,10,14,24,15,,,,,,,3.06,2.61,1.61*0A
$GPGSV,3,1,12,08,00,295,,10,74,302,25,11,01,332,,12,18,116,23*74
$GPGSV,3,2,12,14,23,262,32,15,17,079,19,18,71,143,22,20,09,132,15*7A
$GPGSV,3,3,12,21,16,190,20,24,53,064,28,25,06,150,,32,41,271,36*7C
$GPGLL,4531.07212,N,07341.32888,W,184616.00,A,A*7A
$GPRMC,184617.00,A,4531.07176,N,07341.32875,W,0.302,,131217,,,A*67
$GPVTG,,T,,M,0.302,N,0.560,K,A*21
$GPGGA,184617.00,4531.07176,N,07341.32875,W,1,06,2.61,21.3,M,-32.7,M,,*55
$GPGSA,A,3,32,18,10,14,24,15,,,,,,,3.06,2.61,1.61*0A
$GPGSV,3,1,12,08,00,295,,10,74,302,25,11,01,332,,12,18,116,23*74
$GPGSV,3,2,12,14,23,262,32,15,17,079,19,18,71,143,22,20,09,132,15*7A
$GPGSV,3,3,12,21,16,190,20,24,53,064,28,25,06,150,,32,41,271,36*7C
$GPGLL,4531.07176,N,07341.32875,W,184617.00,A,A*78
$GPRMC,184618.00,A,4531.07200,N,07341.32883,W,0.048,,131217,,,A*6E
$GPVTG,,T,,M,0.048,N,0.088,K,A*2F
$GPGGA,184618.00,4531.07200,N,07341.32883,W,1,06,2.61,21.4,M,-32.7,M,,*56
$GPGSA,A,3,32,18,10,14,24,15,,,,,,,3.06,2.61,1.61*0A
$GPGSV,3,1,12,08,00,295,,10,74,302,25,11,01,332,,12,18,116,23*74
$GPGSV,3,2,12,14,23,262,32,15,17,079,19,18,71,143,22,20,09,132,15*7A
$GPGSV,3,3,12,21,16,190,20,24,53,064,28,25,06,150,,32,41,271,36*7C
$GPGLL,4531.07200,N,07341.32883,W,184618.00,A,A*7C
$GPRMC,184619.00,A,4531.07162,N,07341.32874,W,0.063,,131217,,,A*69
$GPVTG,,T,,M,0.063,N,0.117,K,A*21
$GPGGA,184619.00,4531.07162,N,07341.32874,W,1,06,2.61,21.7,M,-32.7,M,,*5B
$GPGSA,A,3,32,18,10,14,24,15,,,,,,,3.06,2.61,1.61*0A
$GPGSV,3,1,12,08,00,295,,10,74,302,24,11,01,332,,12,18,116,23*75
$GPGSV,3,2,12,14,23,262,32,15,17,079,19,18,71,143,22,20,09,132,17*78
$GPGSV,3,3,12,21,16,190,20,24,53,064,28,25,06,150,,32,41,271,36*7C
$GPGLL,4531.07162,N,07341.32874,W,184619.00,A,A*72
$GPRMC,184620.00,A,4531.07182,N,07341.32881,W,0.070,,131217,,,A*65
$GPVTG,,T,,M,0.070,N,0.131,K,A*27
$GPGGA,184620.00,4531.07182,N,07341.32881,W,1,06,2.61,21.7,M,-32.7,M,,*55
$GPGSA,A,3,32,18,10,14,24,15,,,,,,,3.06,2.61,1.61*0A
$GPGSV,3,1,12,08,00,295,,10,74,302,24,11,01,332,,12,18,116,23*75
$GPGSV,3,2,12,14,23,262,32,15,17,079,18,18,71,143,22,20,09,132,16*78
$GPGSV,3,3,12,21,16,190,19,24,53,064,28,25,06,150,,32,41,271,36*76
$GPGLL,4531.07182,N,07341.32881,W,184620.00,A,A*7C
$GPRMC,184621.00,A,4531.07172,N,07341.32877,W,0.127,,131217,,,A*61
$GPVTG,,T,,M,0.127,N,0.235,K,A*23
$GPGGA,184621.00,4531.07172,N,07341.32877,W,1,06,2.60,21.9,M,-32.7,M,,*5D
$GPGSA,A,3,32,18,10,14,24,15,,,,,,,3.06,2.60,1.61*0B
$GPGSV,3,1,12,08,00,295,,10,74,302,25,11,01,332,,12,18,116,22*75
$GPGSV,3,2,12,14,23,262,32,15,17,079,17,18,71,143,22,20,09,132,14*75
$GPGSV,3,3,12,21,16,190,20,24,53,064,28,25,06,150,,32,41,271,36*7C
$GPGLL,4531.07172,N,07341.32877,W,184621.00,A,A*7B
$GPRMC,184622.00,A,4531.07170,N,07341.32878,W,0.026,,131217,,,A*6F
$GPVTG,,T,,M,0.026,N,0.047,K,A*24
$GPGGA,184622.00,4531.07170,N,07341.32878,W,1,06,2.60,22.0,M,-32.7,M,,*59
$GPGSA,A,3,32,18,10,14,24,15,,,,,,,3.06,2.60,1.61*0B
$GPGSV,3,1,12,08,00,295,,10,74,302,25,11,01,332,,12,18,116,22*75
$GPGSV,3,2,12,14,23,262,32,15,17,079,17,18,71,143,22,20,09,132,13*72
$GPGSV,3,3,12,21,16,190,19,24,53,064,29,25,06,150,,32,41,271,36*77
$GPGLL,4531.07170,N,07341.32878,W,184622.00,A,A*75
$GPRMC,184623.00,A,4531.07190,N,07341.32885,W,0.208,,131217,,,A*6C
$GPVTG,,T,,M,0.208,N,0.385,K,A*27
$GPGGA,184623.00,4531.07190,N,07341.32885,W,1,06,2.60,22.1,M,-32.7,M,,*55
$GPGSA,A,3,32,18,10,14,24,15,,,,,,,3.06,2.60,1.61*0B
$GPGSV,3,1,12,08,00,295,,10,74,302,24,11,01,332,,12,18,116,22*74
$GPGSV,3,2,12,14,23,262,31,15,17,079,18,18,71,143,21,20,09,132,14*7A
$GPGSV,3,3,12,21,16,190,20,24,53,064,29,25,06,150,,32,41,271,36*7D
$GPGLL,4531.07190,N,07341.32885,W,184623.00,A,A*78
$GPRMC,184624.00,A,4531.07165,N,07341.32879,W,0.040,,131217,,,A*6C
$GPVTG,,T,,M,0.040,N,0.074,K,A*24
$GPGGA,184624.00,4531.07165,N,07341.32879,W,1,06,2.60,22.2,M,-32.7,M,,*58
$GPGSA,A,3,32,18,10,14,24,15,,,,,,,3.06,2.60,1.61*0B
$GPGSV,3,1,12,08,00,295,,10,74,302,24,11,01,332,,12,18,116,21*77
$GPGSV,3,2,12,14,23,262,31,15,17,079,19,18,71,143,21,20,09,132,16*79
$GPGSV,3,3,12,21,16,190,19,24,53,064,29,25,06,150,,32,42,271,36*74
$GPGLL,4531.07165,N,07341.32879,W,184624.00,A,A*76
$GPRMC,184625.00,A,4531.07122,N,07341.32868,W,0.219,,131217,,,A*60
$GPVTG,,T,,M,0.219,N,0.406,K,A*2B
$GPGGA,184625.00,4531.07122,N,07341.32868,W,1,06,2.60,22.5,M,-32.7,M,,*5D
$GPGSA,A,3,32,18,10,14,24,15,,,,,,,3.06,2.60,1.61*0B
$GPGSV,3,1,12,08,00,295,,10,74,302,24,11,01,332,,12,18,116,21*77
$GPGSV,3,2,12,14,23,262,31,15,17,079,19,18,71,143,21,20,09,132,16*79
$GPGSV,3,3,12,21,16,190,18,24,53,064,29,25,06,150,,32,42,271,36*75
$GPGLL,4531.07122,N,07341.32868,W,184625.00,A,A*74
$GPRMC,184626.00,A,4531.07112,N,07341.32869,W,0.221,,131217,,,A*6A
$GPVTG,,T,,M,0.221,N,0.410,K,A*27
$GPGGA,184626.00,4531.07112,N,07341.32869,W,1,06,2.60,22.7,M,-32.7,M,,*5E
$GPGSA,A,3,32,18,10,14,24,15,,,,,,,3.06,2.60,1.61*0B
$GPGSV,3,1,12,08,00,295,,10,74,302,24,11,01,332,,12,18,116,20*76
$GPGSV,3,2,12,14,23,262,32,15,17,079,19,18,71,143,20,20,09,132,15*78
$GPGSV,3,3,12,21,16,190,19,24,53,064,28,25,06,150,,32,42,271,36*75
$GPGLL,4531.07112,N,07341.32869,W,184626.00,A,A*75
$GPRMC,184627.00,A,4531.07125,N,07341.32867,W,0.021,,131217,,,A*63
$GPVTG,,T,,M,0.021,N,0.039,K,A*2A
$GPGGA,184627.00,4531.07125,N,07341.32867,W,1,06,2.60,22.7,M,-32.7,M,,*55
$GPGSA,A,3,32,18,10,14,24,15,,,,,,,3.06,2.60,1.61*0B
$GPGSV,3,1,12,08,00,295,,10,74,302,25,11,01,332,,12,18,116,20*77
$GPGSV,3,2,12,14,23,262,31,15,17,079,19,18,71,143,20,20,09,132,14*7A
$GPGSV,3,3,12,21,16,190,20,24,53,064,29,25,06,150,,32,42,271,36*7E
$GPGLL,4531.07125,N,07341.32867,W,184627.00,A,A*7E
$GPRMC,184628.00,A,4531.07062,N,07341.32847,W,0.272,,131217,,,A*68
$GPVTG,,T,,M,0.272,N,0.504,K,A*25
$GPGGA,184628.00,4531.07062,N,07341.32847,W,1,06,2.60,22.9,M,-32.7,M,,*54
$GPGSA,A,3,32,18,10,14,24,15,,,,,,,3.06,2.60,1.61*0B
$GPGSV,3,1,12,08,00,295,,10,74,302,25,11,01,332,,12,18,116,19*7D
$GPGSV,3,2,12,14,23,262,30,15,17,079,18,18,71,143,19,20,09,132,14*70
$GPGSV,3,3,12,21,16,190,20,24,53,064,28,25,06,150,,32,42,271,35*7C
$GPGLL,4531.07062,N,07341.32847,W,184628.00,A,A*71
$GPRMC,184629.00,A,4531.07045,N,07341.32842,W,0.315,,131217,,,A*69
$GPVTG,,T,,M,0.315,N,0.584,K,A*2D
$GPGGA,184629.00,4531.07045,N,07341.32842,W,1,06,2.60,23.1,M,-32.7,M,,*5C
$GPGSA,A,3,32,18,10,14,24,15,,,,,,,3.06,2.60,1.61*0B
$GPGSV,3,1,12,08,00,295,,10,74,302,24,11,01,332,,12,18,116,19*7C
$GPGSV,3,2,12,14,23,262,31,15,17,079,17,18,71,143,20,20,09,132,13*73
$GPGSV,3,3,12,21,16,190,19,24,53,064,28,25,06,150,,32,42,271,35*76
$GPGLL,4531.07045,N,07341.32842,W,184629.00,A,A*70
$GPRMC,184630.00,A,4531.07042,N,07341.32845,W,0.287,,131217,,,A*6B
$GPVTG,,T,,M,0.287,N,0.531,K,A*29
$GPGGA,184630.00,4531.07042,N,07341.32845,W,1,06,2.60,23.3,M,-32.7,M,,*56
$GPGSA,A,3,32,18,10,14,24,15,,,,,,,3.06,2.60,1.61*0B
$GPGSV,3,1,12,08,00,295,,10,74,302,24,11,01,332,,12,18,116,18*7D
$GPGSV,3,2,12,14,23,262,31,15,17,079,17,18,71,143,20,20,09,132,12*72
$GPGSV,3,3,12,21,16,190,19,24,53,064,28,25,06,150,,32,42,271,35*76
$GPGLL,4531.07042,N,07341.32845,W,184630.00,A,A*78
$GPRMC,184631.00,A,4531.07011,N,07341.32837,W,0.342,,131217,,,A*61
$GPVTG,,T,,M,0.342,N,0.633,K,A*20
$GPGGA,184631.00,4531.07011,N,07341.32837,W,1,06,2.60,23.6,M,-32.7,M,,*51
$GPGSA,A,3,32,18,10,14,24,15,,,,,,,3.06,2.60,1.61*0B
$GPGSV,3,1,12,08,00,295,,10,74,302,24,11,01,332,,12,18,116,17*72
$GPGSV,3,2,12,14,23,262,31,15,17,079,17,18,71,143,20,20,09,132,11*71
$GPGSV,3,3,12,21,16,190,18,24,53,064,28,25,06,150,,32,42,271,35*77
$GPGLL,4531.07011,N,07341.32837,W,184631.00,A,A*7A
$GPRMC,184632.00,A,4531.07037,N,07341.32841,W,0.084,,131217,,,A*6E
$GPVTG,,T,,M,0.084,N,0.156,K,A*2D
$GPGGA,184632.00,4531.07037,N,07341.32841,W,1,06,2.60,23.5,M,-32.7,M,,*54
$GPGSA,A,3,32,18,10,14,24,15,,,,,,,3.05,2.60,1.61*08
$GPGSV,3,1,12,08,00,295,,10,74,302,23,11,01,332,,12,18,116,17*75
$GPGSV,3,2,12,14,23,262,30,15,17,079,18,18,71,143,20,20,09,132,10*7E
$GPGSV,3,3,12,21,16,190,19,24,53,064,29,25,06,150,,32,42,271,35*77
$GPGLL,4531.07037,N,07341.32841,W,184632.00,A,A*7C
$GPRMC,184633.00,A,4531.07024,N,07341.32839,W,0.099,,131217,,,A*6E
$GPVTG,,T,,M,0.099,N,0.183,K,A*29
$GPGGA,184633.00,4531.07024,N,07341.32839,W,1,06,2.60,23.6,M,-32.7,M,,*5B
$GPGSA,A,3,32,18,10,14,24,15,,,,,,,3.05,2.60,1.61*08
$GPGSV,3,1,12,08,00,295,,10,74,302,24,11,01,332,,12,18,116,19*7C
$GPGSV,3,2,12,14,23,262,31,15,17,079,18,18,71,143,20,20,09,132,11*7E
$GPGSV,3,3,12,21,16,190,19,24,53,064,29,25,06,150,,32,42,271,35*77
$GPGLL,4531.07024,N,07341.32839,W,184633.00,A,A*70
$GPRMC,184634.00,A,4531.06993,N,07341.32831,W,0.284,,131217,,,A*6B
$GPVTG,,T,,M,0.284,N,0.525,K,A*2F
$GPGGA,184634.00,4531.06993,N,07341.32831,W,1,06,2.60,23.9,M,-32.7,M,,*5F
$GPGSA,A,3,32,18,10,14,24,15,,,,,,,3.05,2.60,1.61*08
$GPGSV,3,1,12,08,00,295,,10,74,302,24,11,01,332,,12,18,116,19*7C
$GPGSV,3,2,12,14,23,262,31,15,17,079,18,18,71,143,20,20,09,132,12*7D
$GPGSV,3,3,12,21,16,190,19,24,53,064,28,25,06,150,,32,42,271,35*76
$GPGLL,4531.06993,N,07341.32831,W,184634.00,A,A*7B
$GPRMC,184635.00,A,4531.06940,N,07341.32820,W,0.725,,131217,,,A*6A
$GPVTG,,T,,M,0.725,N,1.342,K,A*27
$GPGGA,184635.00,4531.06940,N,07341.32820,W,1,06,2.60,24.2,M,-32.7,M,,*5C
$GPGSA,A,3,32,18,10,14,24,15,,,,,,,3.05,2.60,1.61*08
$GPGSV,3,1,12,08,00,295,,10,74,302,23,11,01,332,,12,18,116,19*7B
$GPGSV,3,2,12,14,23,262,31,15,17,079,19,18,71,143,20,20,09,132,12*7C
$GPGSV,3,3,12,21,16,190,19,24,53,064,28,25,06,150,,32,42,271,35*76
$GPGLL,4531.06940,N,07341.32820,W,184635.00,A,A*74
$GPRMC,184636.00,A,4531.06940,N,07341.32817,W,0.586,,131217,,,A*66
$GPVTG,,T,,M,0.586,N,1.086,K,A*27
$GPGGA,184636.00,4531.06940,N,07341.32817,W,1,06,2.60,24.3,M,-32.7,M,,*5A
$GPGSA,A,3,32,18,10,14,24,15,,,,,,,3.05,2.60,1.61*08
$GPGSV,3,1,12,08,00,295,,10,74,302,23,11,01,332,,12,18,116,18*7A
$GPGSV,3,2,12,14,23,262,31,15,17,079,18,18,71,143,20,20,09,132,09*77
$GPGSV,3,3,12,21,16,190,18,24,53,064,28,25,06,150,,32,42,271,35*77
$GPGLL,4531.06940,N,07341.32817,W,184636.00,A,A*73
$GPRMC,184637.00,A,4531.06921,N,07341.32815,W,0.525,,131217,,,A*6B
$GPVTG,,T,,M,0.525,N,0.972,K,A*2D
$GPGGA,184637.00,4531.06921,N,07341.32815,W,1,06,2.59,24.6,M,-32.7,M,,*51
$GPGSA,A,3,32,18,10,14,24,15,,,,,,,3.05,2.59,1.61*02
$GPGSV,3,1,12,08,00,295,,10,74,302,22,11,01,332,,12,18,116,18*7B
$GPGSV,3,2,12,14,23,262,31,15,17,079,16,18,71,143,18,20,09,132,08*73
$GPGSV,3,3,12,21,16,190,18,24,53,064,28,25,06,150,,32,42,271,35*77
$GPGLL,4531.06921,N,07341.32815,W,184637.00,A,A*77
$GPRMC,184638.00,A,4531.06912,N,07341.32814,W,0.555,,131217,,,A*62
$GPVTG,,T,,M,0.555,N,1.029,K,A*2C
$GPGGA,184638.00,4531.06912,N,07341.32814,W,1,06,2.59,24.9,M,-32.7,M,,*50
$GPGSA,A,3,32,18,10,14,24,15,,,,,,,3.05,2.59,1.61*02
$GPGSV,3,1,12,08,00,295,,10,74,302,22,11,01,332,,12,18,116,17*74
$GPGSV,3,2,12,14,23,262,31,15,17,079,16,18,71,143,19,20,09,132,10*7B
$GPGSV,3,3,12,21,16,190,18,24,53,064,28,25,06,150,,32,42,271,35*77
$GPGLL,4531.06912,N,07341.32814,W,184638.00,A,A*79
$GPRMC,184639.00,A,4531.06922,N,07341.32818,W,0.520,,131217,,,A*6E
$GPVTG,,T,,M,0.520,N,0.962,K,A*29
$GPGGA,184639.00,4531.06922,N,07341.32818,W,1,06,2.59,24.9,M,-32.7,M,,*5E
$GPGSA,A,3,32,18,10,14,24,15,,,,,,,3.05,2.59,1.61*02
$GPGSV,3,1,12,08,00,295,,10,74,302,23,11,01,332,,12,18,116,18*7A
$GPGSV,3,2,12,14,23,262,30,15,17,079,17,18,71,143,18,20,09,132,11*7B
$GPGSV,3,3,12,21,16,190,19,24,53,064,28,25,06,150,,32,42,271,35*76
$GPGLL,4531.06922,N,07341.32818,W,184639.00,A,A*77
$GPRMC,184640.00,A,4531.06936,N,07341.32826,W,0.416,,131217,,,A*6C
$GPVTG,,T,,M,0.416,N,0.770,K,A*20
$GPGGA,184640.00,4531.06936,N,07341.32826,W,1,06,2.59,25.1,M,-32.7,M,,*51
$GPGSA,A,3,32,18,10,14,24,15,,,,,,,3.05,2.59,1.61*02
$GPGSV,3,1,12,08,00,295,,10,74,302,24,11,01,332,,12,18,116,18*7D
$GPGSV,3,2,12,14,23,262,30,15,17,079,17,18,71,143,19,20,09,132,12*79
$GPGSV,3,3,12,21,16,190,19,24,53,064,28,25,06,150,,32,42,271,35*76
$GPGLL,4531.06936,N,07341.32826,W,184640.00,A,A*71
$GPRMC,184641.00,A,4531.06963,N,07341.32832,W,0.175,,131217,,,A*68
$GPVTG,,T,,M,0.175,N,0.324,K,A*25
$GPGGA,184641.00,4531.06963,N,07341.32832,W,1,06,2.59,25.2,M,-32.7,M,,*56
$GPGSA,A,3,32,18,10,14,24,15,,,,,,,3.05,2.59,1.61*02
$GPGSV,3,1,12,08,00,295,,10,74,302,24,11,01,332,,12,18,116,19*7C
$GPGSV,3,2,12,14,23,262,30,15,17,079,17,18,71,143,18,20,09,132,11*7B
$GPGSV,3,3,12,21,16,190,17,24,53,064,27,25,06,150,,32,42,271,31*73
$GPGLL,4531.06963,N,07341.32832,W,184641.00,A,A*75
$GPRMC,184642.00,A,4531.06963,N,07341.32835,W,0.092,,131217,,,A*64
$GPVTG,,T,,M,0.092,N,0.170,K,A*2E
$GPGGA,184642.00,4531.06963,N,07341.32835,W,1,06,2.59,25.5,M,-32.7,M,,*55
$GPGSA,A,3,32,18,10,14,24,15,,,,,,,3.05,2.59,1.61*02
$GPGSV,3,1,12,08,00,295,,10,74,302,23,11,01,332,,12,18,116,19*7B
$GPGSV,3,2,12,14,23,262,30,15,17,079,16,18,71,143,18,20,09,132,10*7B
$GPGSV,3,3,12,21,16,190,16,24,53,064,27,25,06,150,,32,42,271,33*70
$GPGLL,4531.06963,N,07341.32835,W,184642.00,A,A*71
$GPRMC,184643.00,A,4531.06962,N,07341.32838,W,0.042,,131217,,,A*64
$GPVTG,,T,,M,0.042,N,0.078,K,A*2A
$GPGGA,184643.00,4531.06962,N,07341.32838,W,1,06,2.59,25.7,M,-32.7,M,,*5A
$GPGSA,A,3,32,18,10,14,24,15,,,,,,,3.05,2.59,1.61*02
$GPGSV,3,1,12,08,00,295,,10,74,302,23,11,01,332,,12,18,116,18*7A
$GPGSV,3,2,12,14,23,262,30,15,17,079,15,18,71,143,17,20,09,132,10*77
$GPGSV,3,3,12,21,16,190,14,24,53,064,27,25,06,150,,32,42,271,34*75
$GPGLL,4531.06962,N,07341.32838,W,184643.00,A,A*7C
$GPRMC,184644.00,A,4531.06945,N,07341.32833,W,0.119,,131217,,,A*62
$GPVTG,,T,,M,0.119,N,0.221,K,A*2B
$GPGGA,184644.00,4531.06945,N,07341.32833,W,1,06,2.59,25.9,M,-32.7,M,,*5D
$GPGSA,A,3,32,18,10,14,24,15,,,,,,,3.05,2.59,1.61*02
$GPGSV,3,1,12,08,00,295,,10,74,302,24,11,01,332,,12,18,116,18*7D
$GPGSV,3,2,12,14,23,262,30,15,17,079,16,18,71,143,17,20,09,132,10*74
$GPGSV,3,3,12,21,16,190,15,24,53,064,27,25,06,150,,32,42,271,34*74
$GPGLL,4531.06945,N,07341.32833,W,184644.00,A,A*75
$GPRMC,184645.00,A,4531.07004,N,07341.32848,W,0.332,,131217,,,A*69
$GPVTG,,T,,M,0.332,N,0.615,K,A*23
$GPGGA,184645.00,4531.07004,N,07341.32848,W,1,06,2.59,25.8,M,-32.7,M,,*5C
$GPGSA,A,3,32,18,10,14,24,15,,,,,,,3.05,2.59,1.61*02
$GPGSV,3,1,12,08,00,295,,10,74,302,24,11,01,332,,12,18,116,19*7C
$GPGSV,3,2,12,14,23,262,30,15,17,079,17,18,71,143,18,20,09,132,10*7A
$GPGSV,3,3,12,21,16,190,16,24,53,064,27,25,06,150,,32,42,271,34*77
$GPGLL,4531.07004,N,07341.32848,W,184645.00,A,A*75
$GPRMC,184646.00,A,4531.06996,N,07341.32840,W,0.327,,131217,,,A*65
$GPVTG,,T,,M,0.327,N,0.605,K,A*26
$GPGGA,184646.00,4531.06996,N,07341.32840,W,1,06,2.59,25.8,M,-32.7,M,,*54
$GPGSA,A,3,32,18,10,14,24,15,,,,,,,3.05,2.59,1.61*02
$GPGSV,3,1,12,08,00,295,,10,74,302,24,11,01,332,,12,18,116,20*76
$GPGSV,3,2,12,14,23,262,30,15,17,079,18,18,71,143,17,20,09,132,10*7A
$GPGSV,3,3,12,21,16,190,16,24,53,064,27,25,06,150,,32,42,271,34*77
$GPGLL,4531.06996,N,07341.32840,W,184646.00,A,A*7D
$GPRMC,184647.00,A,4531.06992,N,07341.32841,W,0.202,,131217,,,A*67
$GPVTG,,T,,M,0.202,N,0.374,K,A*23
$GPGGA,184647.00,4531.06992,N,07341.32841,W,1,06,2.59,26.1,M,-32.7,M,,*5A
$GPGSA,A,3,32,18,10,14,24,15,,,,,,,3.05,2.59,1.61*02
$GPGSV,3,1,12,08,00,295,,10,74,302,25,11,01,332,,12,19,115,20*75
$GPGSV,3,2,12,14,23,262,30,15,17,079,18,18,71,143,16,20,09,132,10*7B
$GPGSV,3,3,12,21,16,190,16,24,53,064,27,25,06,150,,32,42,271,34*77
$GPGLL,4531.06992,N,07341.32841,W,184647.00,A,A*79
$GPRMC,184648.00,A,4531.06958,N,07341.32826,W,0.247,,131217,,,A*6E
$GPVTG,,T,,M,0.247,N,0.458,K,A*2B
$GPGGA,184648.00,4531.06958,N,07341.32826,W,1,06,2.59,26.3,M,-32.7,M,,*50
$GPGSA,A,3,32,18,10,14,24,15,,,,,,,3.05,2.59,1.61*02
$GPGSV,3,1,12,08,00,295,,10,74,302,24,11,01,332,,12,19,115,20*74
$GPGSV,3,2,12,14,23,262,30,15,17,079,18,18,71,143,16,20,09,132,10*7B
$GPGSV,3,3,12,21,16,190,16,24,53,064,27,25,06,150,,32,42,271,34*77
$GPGLL,4531.06958,N,07341.32826,W,184648.00,A,A*71
$GPRMC,184649.00,A,4531.06878,N,07341.32803,W,0.692,,131217,,,A*67
$GPVTG,,T,,M,0.692,N,1.282,K,A*27
$GPGGA,184649.00,4531.06878,N,07341.32803,W,1,06,2.59,26.6,M,-32.7,M,,*50
$GPGSA,A,3,32,18,10,14,24,15,,,,,,,3.05,2.59,1.61*02
$GPGSV,3,1,12,08,00,295,,10,74,302,25,11,01,332,,12,19,115,20*75
$GPGSV,3,2,12,14,23,262,30,15,17,079,17,18,71,143,15,20,09,132,10*77
$GPGSV,3,3,12,21,16,190,16,24,53,064,27,25,06,150,,32,42,271,34*77
$GPGLL,4531.06878,N,07341.32803,W,184649.00,A,A*74
$GPRMC,184650.00,A,4531.06920,N,07341.32815,W,0.254,,131217,,,A*6A
$GPVTG,,T,,M,0.254,N,0.470,K,A*23
$GPGGA,184650.00,4531.06920,N,07341.32815,W,1,06,2.59,26.7,M,-32.7,M,,*52
$GPGSA,A,3,32,18,10,14,24,15,,,,,,,3.05,2.59,1.61*02
$GPGSV,3,1,12,08,00,295,,10,74,302,25,11,01,332,,12,19,115,20*75
$GPGSV,3,2,12,14,23,262,30,15,17,079,17,18,71,143,15,20,09,132,08*7E
$GPGSV,3,3,12,21,16,190,16,24,53,064,28,25,06,150,,32,42,271,34*78
$GPGLL,4531.06920,N,07341.32815,W,184650.00,A,A*77
$GPRMC,184651.00,A,4531.06870,N,07341.32796,W,0.327,,131217,,,A*6E
$GPVTG,,T,,M,0.327,N,0.606,K,A*25
$GPGGA,184651.00,4531.06870,N,07341.32796,W,1,06,2.59,26.9,M,-32.7,M,,*5D
$GPGSA,A,3,32,18,10,14,24,15,,,,,,,3.05,2.59,1.61*02
$GPGSV,3,1,12,08,00,295,,10,74,302,25,11,01,332,,12,19,115,21*74
$GPGSV,3,2,12,14,23,262,30,15,17,079,17,18,71,143,16,20,09,132,08*7D
$GPGSV,3,3,12,21,16,190,16,24,53,064,28,25,06,150,,32,42,271,34*78
$GPGLL,4531.06870,N,07341.32796,W,184651.00,A,A*76
$GPRMC,184652.00,A,4531.06898,N,07341.32806,W,0.177,,131217,,,A*6A
$GPVTG,,T,,M,0.177,N,0.328,K,A*2B
$GPGGA,184652.00,4531.06898,N,07341.32806,W,1,06,2.59,26.9,M,-32.7,M,,*5E
$GPGSA,A,3,32,18,10,14,24,15,,,,,,,3.04,2.59,1.61*03
$GPGSV,3,1,12,08,00,295,,10,74,302,25,11,01,332,,12,19,115,21*74
$GPGSV,3,2,12,14,23,262,30,15,17,079,17,18,71,143,15,20,09,132,08*7E
$GPGSV,3,3,12,21,16,190,16,24,53,064,28,25,06,150,,32,42,271,34*78
$GPGLL,4531.06898,N,07341.32806,W,184652.00,A,A*75
$GPRMC,184653.00,A,4531.06937,N,07341.32820,W,0.091,,131217,,,A*62
$GPVTG,,T,,M,0.091,N,0.168,K,A*24
$GPGGA,184653.00,4531.06937,N,07341.32820,W,1,06,2.59,26.9,M,-32.7,M,,*5F
$GPGSA,A,3,32,18,10,14,24,15,,,,,,,3.04,2.59,1.61*03
$GPGSV,3,1,12,08,00,295,,10,74,302,25,11,01,332,,12,19,115,21*74
$GPGSV,3,2,12,14,23,262,30,15,17,079,18,18,71,144,16,20,09,132,08*75
$GPGSV,3,3,12,21,16,190,16,24,53,064,28,25,06,150,,32,42,271,34*78
$GPGLL,4531.06937,N,07341.32820,W,184653.00,A,A*74
$GPRMC,184654.00,A,4531.06996,N,07341.32845,W,0.562,,131217,,,A*64
$GPVTG,,T,,M,0.562,N,1.042,K,A*25
$GPGGA,184654.00,4531.06996,N,07341.32845,W,1,06,2.58,27.0,M,-32.7,M,,*59
$GPGSA,A,3,32,18,10,14,24,15,,,,,,,3.04,2.58,1.61*02
$GPGSV,3,1,12,08,00,295,,10,74,302,25,11,01,332,,12,19,115,22*77
$GPGSV,3,2,12,14,23,262,30,15,17,079,18,18,71,144,16,20,09,132,08*75
$GPGSV,3,3,12,21,16,190,15,24,53,064,28,25,06,150,,32,42,271,34*7B
$GPGLL,4531.06996,N,07341.32845,W,184654.00,A,A*7B
$GPRMC,184655.00,A,4531.07022,N,07341.32857,W,0.861,,131217,,,A*6F
$GPVTG,,T,,M,0.861,N,1.595,K,A*24
$GPGGA,184655.00,4531.07022,N,07341.32857,W,1,06,2.58,27.2,M,-32.7,M,,*5E
$GPGSA,A,3,32,18,10,14,24,15,,,,,,,3.04,2.58,1.61*02
$GPGSV,3,1,12,08,00,295,,10,74,302,25,11,01,332,,12,19,115,22*77
$GPGSV,3,2,12,14,23,262,30,15,17,079,18,18,71,144,17,20,08,132,08*75
$GPGSV,3,3,12,21,16,190,14,24,53,064,28,25,06,150,,32,42,271,34*7A
$GPGLL,4531.07022,N,07341.32857,W,184655.00,A,A*7E
$GPRMC,184656.00,A,4531.07077,N,07341.32877,W,1.176,347.35,131217,,,A*78
$GPVTG,347.35,T,,M,1.176,N,2.178,K,A*36
$GPGGA,184656.00,4531.07077,N,07341.32877,W,1,06,2.58,27.2,M,-32.7,M,,*5F
$GPGSA,A,3,32,18,10,14,24,15,,,,,,,3.04,2.58,1.61*02
$GPGSV,3,1,12,08,00,295,,10,74,302,24,11,01,332,,12,19,115,21*75
$GPGSV,3,2,12,14,23,262,29,15,17,079,17,18,71,144,16,20,08,132,13*79
$GPGSV,3,3,12,21,16,190,15,24,53,064,28,25,06,150,,32,42,271,36*79
$GPGLL,4531.07077,N,07341.32877,W,184656.00,A,A*7F
$GPRMC,184657.00,A,4531.07055,N,07341.32877,W,0.950,345.28,131217,,,A*7A
$GPVTG,345.28,T,,M,0.950,N,1.760,K,A*39
$GPGGA,184657.00,4531.07055,N,07341.32877,W,1,06,2.58,27.5,M,-32.7,M,,*59
$GPGSA,A,3,32,18,10,14,24,15,,,,,,,3.04,2.58,1.61*02
$GPGSV,3,1,12,08,00,295,,10,74,302,24,11,01,332,,12,19,115,22*76
$GPGSV,3,2,12,14,23,262,30,15,17,079,17,18,71,144,17,20,08,132,13*70
$GPGSV,3,3,12,21,16,190,16,24,53,064,28,25,06,150,,32,42,271,34*78
$GPGLL,4531.07055,N,07341.32877,W,184657.00,A,A*7E
$GPRMC,184658.00,A,4531.07020,N,07341.32871,W,0.649,,131217,,,A*60
$GPVTG,,T,,M,0.649,N,1.202,K,A*29
$GPGGA,184658.00,4531.07020,N,07341.32871,W,1,06,2.58,27.7,M,-32.7,M,,*50
$GPGSA,A,3,32,18,10,14,24,15,,,,,,,3.04,2.58,1.61*02
$GPGSV,3,1,12,08,00,295,,10,74,302,24,11,01,332,,12,19,115,22*76
$GPGSV,3,2,12,14,23,262,30,15,17,079,17,18,71,144,17,20,08,132,13*70
$GPGSV,3,3,12,21,16,190,17,24,53,064,28,25,06,150,,32,42,271,34*79
$GPGLL,4531.07020,N,07341.32871,W,184658.00,A,A*75
$GPRMC,184659.00,A,4531.06931,N,07341.32844,W,0.248,,131217,,,A*6A
$GPVTG,,T,,M,0.248,N,0.459,K,A*25
$GPGGA,184659.00,4531.06931,N,07341.32844,W,1,06,2.58,28.2,M,-32.7,M,,*55
$GPGSA,A,3,32,18,10,14,24,15,,,,,,,3.04,2.58,1.61*02
$GPGSV,3,1,12,08,00,295,,10,74,302,24,11,01,332,,12,19,115,22*76
$GPGSV,3,2,12,14,23,262,30,15,17,079,17,18,71,144,17,20,08,132,13*70
$GPGSV,3,3,12,21,16,190,17,24,53,064,28,25,06,150,,32,42,271,34*79
$GPGLL,4531.06931,N,07341.32844,W,184659.00,A,A*7A
$GPRMC,184700.00,A,4531.06888,N,07341.32834,W,0.157,,131217,,,A*6E
$GPVTG,,T,,M,0.157,N,0.290,K,A*2B
$GPGGA,184700.00,4531.06888,N,07341.32834,W,1,06,2.58,28.6,M,-32.7,M,,*58
$GPGSA,A,3,32,18,10,14,24,15,,,,,,,3.04,2.58,1.61*02
$GPGSV,3,1,12,08,00,295,,10,74,302,24,11,01,332,,12,19,115,22*76
$GPGSV,3,2,12,14,23,262,30,15,17,079,17,18,71,144,18,20,08,132,13*7F
$GPGSV,3,3,12,21,16,190,16,24,53,064,29,25,07,150,,32,42,271,34*78
$GPGLL,4531.06888,N,07341.32834,W,184700.00,A,A*73
$GPRMC,184701.00,A,4531.06879,N,07341.32831,W,0.039,,131217,,,A*6D
$GPVTG,,T,,M,0.039,N,0.073,K,A*2D
$GPGGA,184701.00,4531.06879,N,07341.32831,W,1,06,2.58,28.8,M,-32.7,M,,*5C
$GPGSA,A,3,32,18,10,14,24,15,,,,,,,3.04,2.58,1.61*02
$GPGSV,3,1,12,08,00,295,,10,74,302,25,11,01,332,,12,19,115,22*77
$GPGSV,3,2,12,14,23,262,30,15,17,079,16,18,71,144,18,20,08,132,13*7E
$GPGSV,3,3,12,21,16,190,16,24,53,064,28,25,07,150,,32,42,271,35*78
$GPGLL,4531.06879,N,07341.32831,W,184701.00,A,A*79
$GPRMC,184702.00,A,4531.06870,N,07341.32828,W,0.143,,131217,,,A*63
$GPVTG,,T,,M,0.143,N,0.265,K,A*24
$GPGGA,184702.00,4531.06870,N,07341.32828,W,1,06,2.58,28.8,M,-32.7,M,,*5E
$GPGSA,A,3,32,18,10,14,24,15,,,,,,,3.04,2.58,1.61*02
$GPGSV,3,1,12,08,00,295,,10,74,302,25,11,01,332,,12,19,115,21*74
$GPGSV,3,2,12,14,23,262,30,15,17,079,16,18,71,144,18,20,08,132,10*7D
$GPGSV,3,3,12,21,16,190,16,24,53,064,28,25,07,150,,32,42,271,35*78
$GPGLL,4531.06870,N,07341.32828,W,184702.00,A,A*7B
$GPRMC,184703.00,A,4531.06895,N,07341.32834,W,0.049,,131217,,,A*6F
$GPVTG,,T,,M,0.049,N,0.091,K,A*26
$GPGGA,184703.00,4531.06895,N,07341.32834,W,1,06,2.58,28.8,M,-32.7,M,,*59
$GPGSA,A,3,32,18,10,14,24,15,,,,,,,3.04,2.58,1.61*02
$GPGSV,3,1,12,08,00,295,,10,74,302,25,11,01,332,,12,19,115,22*77
$GPGSV,3,2,12,14,23,262,30,15,17,079,17,18,71,144,19,20,08,132,10*7D
$GPGSV,3,3,12,21,16,190,14,24,53,064,29,25,07,150,,32,42,271,35*7B
$GPGLL,4531.06895,N,07341.32834,W,184703.00,A,A*7C
$GPRMC,184704.00,A,4531.06887,N,07341.32832,W,0.127,,131217,,,A*64
$GPVTG,,T,,M,0.127,N,0.236,K,A*20
$GPGGA,184704.00,4531.06887,N,07341.32832,W,1,06,2.58,29.0,M,-32.7,M,,*52
$GPGSA,A,3,32,18,10,14,24,15,,,,,,,3.04,2.58,1.61*02
$GPGSV,3,1,12,08,00,295,,10,74,302,25,11,01,332,,12,19,115,22*77
$GPGSV,3,2,12,14,23,262,30,15,17,079,17,18,71,144,17,20,08,132,10*73
$GPGSV,3,3,12,21,16,190,10,24,53,064,29,25,07,150,,32,42,271,35*7F
$GPGLL,4531.06887,N,07341.32832,W,184704.00,A,A*7E
$GPRMC,184705.00,A,4531.06853,N,07341.32819,W,0.129,,131217,,,A*6B
$GPVTG,,T,,M,0.129,N,0.239,K,A*21
$GPGGA,184705.00,4531.06853,N,07341.32819,W,1,06,2.58,29.3,M,-32.7,M,,*50
$GPGSA,A,3,32,18,10,14,24,15,,,,,,,3.04,2.58,1.61*02
$GPGSV,3,1,12,08,00,295,,10,74,302,26,11,01,332,,12,19,115,22*74
$GPGSV,3,2,12,14,23,262,29,15,17,079,17,18,71,144,16,20,08,132,10*7A
$GPGSV,3,3,12,21,16,190,10,24,53,064,29,25,07,150,,32,42,271,35*7F
$GPGLL,4531.06853,N,07341.32819,W,184705.00,A,A*7F
$GPRMC,184706.00,A,4531.06857,N,07341.32820,W,0.171,,131217,,,A*6B
$GPVTG,,T,,M,0.171,N,0.316,K,A*20
$GPGGA,184706.00,4531.06857,N,07341.32820,W,1,06,2.58,29.2,M,-32.7,M,,*5C
$GPGSA,A,3,32,18,10,14,24,15,,,,,,,3.04,2.58,1.61*02
$GPGSV,3,1,12,08,00,295,,10,74,302,26,11,01,332,,12,19,115,21*77
$GPGSV,3,2,12,14,23,262,30,15,17,079,16,18,71,144,17,20,08,132,10*72
$GPGSV,3,3,12,21,16,190,11,24,53,064,29,25,07,150,,32,42,271,34*7F
$GPGLL,4531.06857,N,07341.32820,W,184706.00,A,A*72
$GPRMC,184707.00,A,4531.06817,N,07341.32809,W,0.384,,131217,,,A*6D
$GPVTG,,T,,M,0.384,N,0.712,K,A*28
$GPGGA,184707.00,4531.06817,N,07341.32809,W,1,06,2.58,29.5,M,-32.7,M,,*55
$GPGSA,A,3,32,18,10,14,24,15,,,,,,,3.04,2.58,1.61*02
$GPGSV,3,1,12,08,00,295,,10,74,302,26,11,01,332,,12,19,115,21*77
$GPGSV,3,2,12,14,23,262,30,15,17,079,17,18,71,144,18,20,08,132,10*7C
$GPGSV,3,3,12,21,16,190,14,24,53,064,29,25,07,150,,32,42,271,35*7B
$GPGLL,4531.06817,N,07341.32809,W,184707.00,A,A*7C
$GPRMC,184708.00,A,4531.06845,N,07341.32810,W,0.212,,131217,,,A*63
$GPVTG,,T,,M,0.212,N,0.392,K,A*2A
$GPGGA,184708.00,4531.06845,N,07341.32810,W,1,06,2.58,29.2,M,-32.7,M,,*52
$GPGSA,A,3,32,18,10,14,24,15,,,,,,,3.04,2.58,1.61*02
$GPGSV,3,1,12,08,00,295,,10,74,302,26,11,01,332,,12,19,115,20*76
$GPGSV,3,2,12,14,23,262,30,15,17,079,18,18,71,144,17,20,08,132,12*7E
$GPGSV,3,3,12,21,16,190,15,24,53,064,29,25,07,150,,32,42,271,34*7B
$GPGLL,4531.06845,N,07341.32810,W,184708.00,A,A*7C
$GPRMC,184709.00,A,4531.06870,N,07341.32814,W,0.018,,131217,,,A*68
$GPVTG,,T,,M,0.018,N,0.033,K,A*2A
$GPGGA,184709.00,4531.06870,N,07341.32814,W,1,06,2.58,29.2,M,-32.7,M,,*51
$GPGSA,A,3,32,18,10,14,24,15,,,,,,,3.04,2.58,1.61*02
$GPGSV,3,1,12,08,00,295,,10,74,302,26,11,01,332,,12,19,115,20*76
$GPGSV,3,2,12,14,23,262,30,15,17,079,17,18,71,144,17,20,08,132,12*71
$GPGSV,3,3,12,21,16,190,14,24,53,064,29,25,07,150,,32,42,271,35*7B
$GPGLL,4531.06870,N,07341.32814,W,184709.00,A,A*7F
$GPRMC,184710.00,A,4531.06836,N,07341.32809,W,0.215,,131217,,,A*61
$GPVTG,,T,,M,0.215,N,0.398,K,A*27
$GPGGA,184710.00,4531.06836,N,07341.32809,W,1,06,2.57,29.4,M,-32.7,M,,*5E
$GPGSA,A,3,32,18,10,14,24,15,,,,,,,3.04,2.57,1.61*0D
$GPGSV,3,1,12,08,00,295,,10,74,302,26,11,01,332,,12,19,115,20*76
$GPGSV,3,2,12,14,23,262,30,15,17,079,18,18,71,144,17,20,08,132,12*7E
$GPGSV,3,3,12,21,16,190,14,24,53,064,29,25,07,150,,32,42,271,35*7B
$GPGLL,4531.06836,N,07341.32809,W,184710.00,A,A*79
$GPRMC,184711.00,A,4531.06730,N,07341.32775,W,1.032,75.57,131217,,,A*45
$GPVTG,75.57,T,,M,1.032,N,1.910,K,A*04
$GPGGA,184711.00,4531.06730,N,07341.32775,W,1,06,2.57,29.9,M,-32.7,M,,*5F
$GPGSA,A,3,32,18,10,14,24,15,,,,,,,3.04,2.57,1.61*0D
$GPGSV,3,1,12,08,00,295,,10,74,302,26,11,01,332,,12,19,115,20*76
$GPGSV,3,2,12,14,23,262,30,15,17,079,17,18,71,144,16,20,08,132,12*70
$GPGSV,3,3,12,21,16,190,13,24,53,064,29,25,07,150,,32,42,271,35*7C
$GPGLL,4531.06730,N,07341.32775,W,184711.00,A,A*75
$GPRMC,184712.00,A,4531.06704,N,07341.32769,W,1.047,130.67,131217,,,A*7D
$GPVTG,130.67,T,,M,1.047,N,1.939,K,A*3E
$GPGGA,184712.00,4531.06704,N,07341.32769,W,1,06,2.57,30.3,M,-32.7,M,,*54
$GPGSA,A,3,32,18,10,14,24,15,,,,,,,3.03,2.57,1.61*0A
$GPGSV,3,1,12,08,00,295,,10,74,302,26,11,01,332,,12,19,115,20*76
$GPGSV,3,2,12,14,23,262,29,15,17,079,17,18,71,144,16,20,08,132,12*78
$GPGSV,3,3,12,21,16,190,14,24,53,064,29,25,07,150,,32,42,271,35*7B
$GPGLL,4531.06704,N,07341.32769,W,184712.00,A,A*7C
$GPRMC,184713.00,A,4531.06727,N,07341.32775,W,0.741,,131217,,,A*6D
$GPVTG,,T,,M,0.741,N,1.373,K,A*27
$GPGGA,184713.00,4531.06727,N,07341.32775,W,1,06,2.57,30.4,M,-32.7,M,,*5E
$GPGSA,A,3,32,18,10,14,24,15,,,,,,,3.03,2.57,1.61*0A
$GPGSV,3,1,12,08,00,295,,10,74,302,26,11,01,332,,12,19,115,19*7C
$GPGSV,3,2,12,14,23,262,29,15,17,079,17,18,71,144,17,20,08,132,12*79
$GPGSV,3,3,12,21,16,190,14,24,53,064,29,25,07,150,,32,42,271,35*7B
$GPGLL,4531.06727,N,07341.32775,W,184713.00,A,A*71
$GPRMC,184714.00,A,4531.06735,N,07341.32783,W,0.516,,131217,,,A*60
$GPVTG,,T,,M,0.516,N,0.956,K,A*2B
$GPGGA,184714.00,4531.06735,N,07341.32783,W,1,06,2.57,30.8,M,-32.7,M,,*5F
$GPGSA,A,3,32,18,10,14,24,15,,,,,,,3.03,2.57,1.61*0A
$GPGSV,3,1,12,08,00,295,,10,74,302,25,11,01,332,,12,19,115,19*7F
$GPGSV,3,2,12,14,23,262,29,15,17,079,18,18,71,144,18,20,08,132,15*7E
$GPGSV,3,3,12,21,16,190,15,24,53,064,28,25,07,150,,32,42,271,35*7B
$GPGLL,4531.06735,N,07341.32783,W,184714.00,A,A*7C
$GPRMC,184715.00,A,4531.06634,N,07341.32754,W,1.107,148.85,131217,,,A*70
$GPVTG,148.85,T,,M,1.107,N,2.050,K,A*3D
$GPGGA,184715.00,4531.06634,N,07341.32754,W,1,06,2.57,31.1,M,-32.7,M,,*5C
$GPGSA,A,3,32,18,10,14,24,15,,,,,,,3.03,2.57,1.61*0A
$GPGSV,3,1,12,08,00,295,,10,74,302,26,11,01,332,,12,19,115,17*72
$GPGSV,3,2,12,14,23,262,29,15,17,079,17,18,71,144,19,20,08,132,15*70
$GPGSV,3,3,12,21,16,190,14,24,53,064,28,25,07,150,,32,42,271,35*7A
$GPGLL,4531.06634,N,07341.32754,W,184715.00,A,A*77
$GPRMC,184716.00,A,4531.06561,N,07341.32730,W,1.476,158.19,131217,,,A*75
$GPVTG,158.19,T,,M,1.476,N,2.733,K,A*38
$GPGGA,184716.00,4531.06561,N,07341.32730,W,1,06,2.57,31.4,M,-32.7,M,,*5B
$GPGSA,A,3,32,18,10,14,24,15,,,,,,,3.03,2.57,1.61*0A
$GPGSV,3,1,12,08,00,295,,10,74,302,26,11,01,332,,12,19,115,16*73
$GPGSV,3,2,12,14,23,262,29,15,17,079,17,18,71,144,17,20,08,132,15*7E
$GPGSV,3,3,12,21,16,190,13,24,53,064,28,25,07,150,,32,42,271,35*7D
$GPGLL,4531.06561,N,07341.32730,W,184716.00,A,A*75
$GPRMC,184717.00,A,4531.06666,N,07341.32758,W,0.667,,131217,,,A*67
$GPVTG,,T,,M,0.667,N,1.235,K,A*21
$GPGGA,184717.00,4531.06666,N,07341.32758,W,1,06,2.57,31.1,M,-32.7,M,,*55
$GPGSA,A,3,32,18,10,14,24,15,,,,,,,3.03,2.57,1.61*0A
$GPGSV,3,1,12,08,00,295,,10,74,302,25,11,01,332,,12,19,115,16*70
$GPGSV,3,2,12,14,23,262,29,15,17,079,16,18,71,144,16,20,08,132,15*7E
$GPGSV,3,3,12,21,16,190,10,24,53,064,29,25,07,150,,32,42,271,35*7F
$GPGLL,4531.06666,N,07341.32758,W,184717.00,A,A*7E
$GPRMC,184718.00,A,4531.06642,N,07341.32755,W,0.681,,131217,,,A*6B
$GPVTG,,T,,M,0.681,N,1.260,K,A*29
$GPGGA,184718.00,4531.06642,N,07341.32755,W,1,06,2.57,31.5,M,-32.7,M,,*55
$GPGSA,A,3,32,18,10,14,24,15,,,,,,,3.03,2.57,1.61*0A
$GPGSV,3,1,12,08,00,295,,10,74,302,25,11,01,332,,12,19,115,16*70
$GPGSV,3,2,12,14,23,262,29,15,17,079,16,18,71,144,16,20,08,132,15*7E
$GPGSV,3,3,12,21,16,190,09,24,53,064,29,25,07,150,,32,42,271,35*77
$GPGLL,4531.06642,N,07341.32755,W,184718.00,A,A*7A
$GPRMC,184719.00,A,4531.06645,N,07341.32758,W,0.690,,131217,,,A*60
$GPVTG,,T,,M,0.690,N,1.279,K,A*21
$GPGGA,184719.00,4531.06645,N,07341.32758,W,1,06,2.57,31.6,M,-32.7,M,,*5D
$GPGSA,A,3,32,18,10,14,24,15,,,,,,,3.03,2.57,1.61*0A
$GPGSV,3,1,12,08,00,295,,10,74,302,25,11,01,332,,12,19,115,15*73
$GPGSV,3,2,12,14,23,262,29,15,17,079,16,18,71,144,16,20,08,132,15*7E
$GPGSV,3,3,12,21,16,190,,24,53,064,29,25,07,150,,32,42,271,35*7E
$GPGLL,4531.06645,N,07341.32758,W,184719.00,A,A*71
$GPRMC,184720.00,A,4531.06686,N,07341.32767,W,0.501,,131217,,,A*62
$GPVTG,,T,,M,0.501,N,0.929,K,A*25
$GPGGA,184720.00,4531.06686,N,07341.32767,W,1,06,2.57,31.6,M,-32.7,M,,*54
$GPGSA,A,3,32,18,10,14,24,15,,,,,,,3.03,2.57,1.61*0A
$GPGSV,3,1,12,08,00,295,,10,74,302,26,11,01,332,,12,19,115,17*72
$GPGSV,3,2,12,14,23,262,29,15,17,079,16,18,71,144,16,20,08,132,17*7C
$GPGSV,3,3,12,21,16,190,,24,53,064,29,25,07,150,,32,42,271,35*7E
$GPGLL,4531.06686,N,07341.32767,W,184720.00,A,A*78
$GPRMC,184721.00,A,4531.06661,N,07341.32752,W,0.531,,131217,,,A*6F
$GPVTG,,T,,M,0.531,N,0.983,K,A*26
$GPGGA,184721.00,4531.06661,N,07341.32752,W,1,06,2.57,31.5,M,-32.7,M,,*59
$GPGSA,A,3,32,18,10,14,24,15,,,,,,,3.03,2.57,1.61*0A
$GPGSV,3,1,12,08,00,295,,10,74,302,25,11,01,332,,12,19,115,17*71
$GPGSV,3,2,12,14,23,262,29,15,17,079,16,18,71,144,16,20,08,132,17*7C
$GPGSV,3,3,12,21,16,190,,24,53,064,29,25,07,150,,32,42,271,36*7D
$GPGLL,4531.06661,N,07341.32752,W,184721.00,A,A*76
$GPRMC,184722.00,A,4531.06699,N,07341.32762,W,0.129,,131217,,,A*65
$GPVTG,,T,,M,0.129,N,0.238,K,A*20
$GPGGA,184722.00,4531.06699,N,07341.32762,W,1,06,2.57,31.5,M,-32.7,M,,*5E
$GPGSA,A,3,32,18,10,14,24,15,,,,,,,3.03,2.57,1.61*0A
$GPGSV,3,1,12,08,00,295,,10,74,302,25,11,01,332,,12,19,115,16*70
$GPGSV,3,2,12,14,23,262,29,15,17,079,16,18,71,144,16,20,08,132,17*7C
$GPGSV,3,3,12,21,16,190,,24,53,064,29,25,07,150,,32,42,271,35*7E
$GPGLL,4531.06699,N,07341.32762,W,184722.00,A,A*71
$GPRMC,184723.00,A,4531.06710,N,07341.32759,W,0.106,,131217,,,A*61
$GPVTG,,T,,M,0.106,N,0.196,K,A*2A
$GPGGA,184723.00,4531.06710,N,07341.32759,W,1,06,2.57,31.4,M,-32.7,M,,*56
$GPGSA,A,3,32,18,10,14,24,15,,,,,,,3.03,2.57,1.61*0A
$GPGSV,3,1,12,08,00,295,,10,74,302,25,11,01,332,,12,19,115,17*71
$GPGSV,3,2,12,14,23,262,29,15,17,079,15,18,71,144,16,20,08,132,17*7F
$GPGSV,3,3,12,21,16,190,,24,53,064,29,25,07,150,,32,42,271,36*7D
$GPGLL,4531.06710,N,07341.32759,W,184723.00,A,A*78
$GPRMC,184724.00,A,4531.06738,N,07341.32764,W,0.079,,131217,,,A*6B
$GPVTG,,T,,M,0.079,N,0.147,K,A*2F
$GPGGA,184724.00,4531.06738,N,07341.32764,W,1,06,2.57,31.3,M,-32.7,M,,*52
$GPGSA,A,3,32,18,10,14,24,15,,,,,,,3.03,2.57,1.61*0A
$GPGSV,3,1,12,08,00,295,,10,74,302,25,11,01,332,,12,19,115,17*71
$GPGSV,3,2,12,14,23,262,29,15,17,079,14,18,71,144,17,20,08,132,17*7F
$GPGSV,3,3,12,21,16,190,,24,53,064,29,25,07,150,,32,42,271,35*7E
$GPGLL,4531.06738,N,07341.32764,W,184724.00,A,A*7B
$GPRMC,184725.00,A,4531.06741,N,07341.32761,W,0.149,,131217,,,A*63
$GPVTG,,T,,M,0.149,N,0.277,K,A*2D
$GPGGA,184725.00,4531.06741,N,07341.32761,W,1,06,2.57,31.3,M,-32.7,M,,*58
$GPGSA,A,3,32,18,10,14,24,15,,,,,,,3.03,2.57,1.61*0A
$GPGSV,3,1,12,08,00,295,,10,74,302,25,11,01,332,,12,19,115,16*70
$GPGSV,3,2,12,14,23,262,29,15,17,079,14,18,71,144,18,20,08,132,17*70
$GPGSV,3,3,12,21,16,190,,24,53,064,29,25,07,150,,32,42,271,36*7D
$GPGLL,4531.06741,N,07341.32761,W,184725.00,A,A*71
$GPRMC,184726.00,A,4531.06749,N,07341.32767,W,0.103,,131217,,,A*60
$GPVTG,,T,,M,0.103,N,0.190,K,A*29
$GPGGA,184726.00,4531.06749,N,07341.32767,W,1,06,2.56,31.4,M,-32.7,M,,*53
$GPGSA,A,3,32,18,10,14,24,15,,,,,,,3.03,2.56,1.61*0B
$GPGSV,3,1,11,10,74,302,25,11,01,332,,12,19,115,15,14,23,262,29*7F
$GPGSV,3,2,11,15,17,079,13,18,71,144,18,20,08,132,15,21,16,190,*73
$GPGSV,3,3,11,24,53,064,29,25,07,150,,32,42,271,36*42
$GPGLL,4531.06749,N,07341.32767,W,184726.00,A,A*7C
